OID,LocationID,County,City,FullName,OwnerType,FSSName,Name_1,SFHA,In_SFHA,lat,lng,Watershed,logo_url
-1,,HARRIS,KINGWOOD,,,,,0,No,30.066838099999998,-95.156968899999995,East Fork San Jacinto,img/ems.png
-1,,MONTGOMERY,PORTER,,,,,0,No,30.095994099999999,-95.214328199999997,East Fork San Jacinto,img/ems.png
-1,,MONTGOMERY,PORTER,,,,,0,No,30.105577400000001,-95.229298799999995,East Fork San Jacinto,img/ems.png
-1,,MONTGOMERY,NEW CANEY,,,,,0,No,30.112263299999999,-95.210753999999994,East Fork San Jacinto,img/ems.png
-1,,MONTGOMERY,PORTER,,,,,0,No,30.158441700000001,-95.310619799999998,East Fork San Jacinto,img/ems.png
-1,,MONTGOMERY,NEW CANEY,,,,,0,No,30.159448500000000,-95.228854499999997,East Fork San Jacinto,img/ems.png
-1,,MONTGOMERY,NEW CANEY,,,,,0,No,30.159451099999998,-95.228856800000003,East Fork San Jacinto,img/ems.png
-1,,MONTGOMERY,SPLENDORA,,,,,0,No,30.239487199999999,-95.158806600000005,East Fork San Jacinto,img/ems.png
-1,,MONTGOMERY,SPLENDORA,,,,,0,No,30.239521499999999,-95.158783000000000,East Fork San Jacinto,img/ems.png
-1,,MONTGOMERY,CONROE,,,,,0,No,30.256616800000000,-95.315262500000003,East Fork San Jacinto,img/ems.png
-1,,MONTGOMERY,CUT AND SHOOT,,,,,0,No,30.333558600000000,-95.349399000000005,East Fork San Jacinto,img/ems.png
-1,,LIBERTY,CLEVELAND,,,,,0,No,30.344536699999999,-95.085553099999998,East Fork San Jacinto,img/ems.png
-1,,MONTGOMERY,CONROE,,,,,0,No,30.397341200000000,-95.353161200000002,East Fork San Jacinto,img/ems.png
-1,,SAN JACINTO,CLEVELAND,,,,,0,No,30.426194299999999,-95.208819599999998,East Fork San Jacinto,img/ems.png
-1,,WALKER,NEW WAVERLY,,,,,0,No,30.538181300000002,-95.480634899999998,East Fork San Jacinto,img/ems.png
-1,,WALKER,DODGE,,,,,0,No,30.744942200000001,-95.397067100000001,East Fork San Jacinto,img/ems.png